$GPGGA,000034.045,0000.000,N,00000.000,E,1,12,1.0,0.0,M,0.0,M,,*68
$GPGSA,A,3,01,02,03,04,05,06,07,08,09,10,11,12,1.0,1.0,1.0*30
$GPRMC,000034.045,A,0000.000,N,00000.000,E,21614.6,269.0,180223,000.0,W*7D
$GPGGA,000035.045,0000.105,S,00005.999,W,1,12,1.0,0.0,M,0.0,M,,*6E
$GPGSA,A,3,01,02,03,04,05,06,07,08,09,10,11,12,1.0,1.0,1.0*30
$GPRMC,000035.045,A,0000.105,S,00005.999,W,43229.1,178.0,180223,000.0,W*71
$GPGGA,000036.045,0012.097,S,00005.580,W,1,12,1.0,0.0,M,0.0,M,,*60
$GPGSA,A,3,01,02,03,04,05,06,07,08,09,10,11,12,1.0,1.0,1.0*30
$GPRMC,000036.045,A,0012.097,S,00005.580,W,64843.3,087.0,180223,000.0,W*7F
$GPGGA,000037.045,0011.155,S,00012.395,E,1,12,1.0,0.0,M,0.0,M,,*7B
$GPGSA,A,3,01,02,03,04,05,06,07,08,09,10,11,12,1.0,1.0,1.0*30
$GPRMC,000037.045,A,0011.155,S,00012.395,E,86458.2,356.0,180223,000.0,W*60
$GPGGA,000038.045,0012.786,N,00010.721,E,1,12,1.0,0.0,M,0.0,M,,*6B
$GPGSA,A,3,01,02,03,04,05,06,07,08,09,10,11,12,1.0,1.0,1.0*30
$GPRMC,000038.045,A,0012.786,N,00010.721,E,108072.2,265.0,180223,000.0,W*4A
$GPGGA,000039.045,0010.172,N,00019.165,W,1,12,1.0,0.0,M,0.0,M,,*78
$GPGSA,A,3,01,02,03,04,05,06,07,08,09,10,11,12,1.0,1.0,1.0*30
$GPRMC,000039.045,A,0010.172,N,00019.165,W,129687.3,174.0,180223,000.0,W*54
$GPGGA,000040.045,0025.631,S,00015.402,W,1,12,1.0,0.0,M,0.0,M,,*65
$GPGSA,A,3,01,02,03,04,05,06,07,08,09,10,11,12,1.0,1.0,1.0*30
$GPRMC,000040.045,A,0025.631,S,00015.402,W,151298.5,083.0,180223,000.0,W*43
$GPGGA,000041.045,0020.513,S,00026.285,E,1,12,1.0,0.0,M,0.0,M,,*79
$GPGSA,A,3,01,02,03,04,05,06,07,08,09,10,11,12,1.0,1.0,1.0*30
$GPRMC,000041.045,A,0020.513,S,00026.285,E,172916.4,352.0,180223,000.0,W*5D
$GPGGA,000042.045,0027.020,N,00019.605,E,1,12,1.0,0.0,M,0.0,M,,*65
$GPGSA,A,3,01,02,03,04,05,06,07,08,09,10,11,12,1.0,1.0,1.0*30
$GPRMC,000042.045,A,0027.020,N,00019.605,E,194526.8,261.0,180223,000.0,W*4B
$GPGGA,000043.045,0018.573,N,00033.730,W,1,12,1.0,0.0,M,0.0,M,,*76
$GPGSA,A,3,01,02,03,04,05,06,07,08,09,10,11,12,1.0,1.0,1.0*30
$GPRMC,000043.045,A,0018.573,N,00033.730,W,216145.5,170.0,180223,000.0,W*5E
$GPGGA,000044.045,0040.516,S,00023.312,W,1,12,1.0,0.0,M,0.0,M,,*67
$GPGSA,A,3,01,02,03,04,05,06,07,08,09,10,11,12,1.0,1.0,1.0*30
$GPRMC,000044.045,A,0040.516,S,00023.312,W,237748.7,079.0,180223,000.0,W*4D
$GPGGA,000045.045,0027.922,S,00041.476,E,1,12,1.0,0.0,M,0.0,M,,*7F
$GPGSA,A,3,01,02,03,04,05,06,07,08,09,10,11,12,1.0,1.0,1.0*30
$GPRMC,000045.045,A,0027.922,S,00041.476,E,259374.5,348.0,180223,000.0,W*55
$GPGGA,000046.045,0042.504,N,00026.506,E,1,12,1.0,0.0,M,0.0,M,,*6D
$GPGSA,A,3,01,02,03,04,05,06,07,08,09,10,11,12,1.0,1.0,1.0*30
$GPRMC,000046.045,A,0042.504,N,00026.506,E,280976.1,257.0,180223,000.0,W*40
$GPGGA,000047.045,0024.958,N,00049.495,W,1,12,1.0,0.0,M,0.0,M,,*79
$GPGSA,A,3,01,02,03,04,05,06,07,08,09,10,11,12,1.0,1.0,1.0*30
$GPRMC,000047.045,A,0024.958,N,00049.495,W,302603.2,166.0,180223,000.0,W*50
$GPGGA,000048.045,0056.547,S,00029.173,W,1,12,1.0,0.0,M,0.0,M,,*67
$GPGSA,A,3,01,02,03,04,05,06,07,08,09,10,11,12,1.0,1.0,1.0*30
$GPRMC,000048.045,A,0056.547,S,00029.173,W,324192.0,075.0,180223,000.0,W*44
$GPGGA,000049.045,0033.253,S,00057.760,E,1,12,1.0,0.0,M,0.0,M,,*78
$GPGSA,A,3,01,02,03,04,05,06,07,08,09,10,11,12,1.0,1.0,1.0*30
$GPRMC,000049.045,A,0033.253,S,00057.760,E,345832.0,344.0,180223,000.0,W*5E
$GPGGA,000050.045,0059.028,N,00031.299,E,1,12,1.0,0.0,M,0.0,M,,*6C
$GPGSA,A,3,01,02,03,04,05,06,07,08,09,10,11,12,1.0,1.0,1.0*30
$GPRMC,000050.045,A,0059.028,N,00031.299,E,367418.8,253.0,180223,000.0,W*41
$GPGGA,000051.045,0029.206,N,00106.244,W,1,12,1.0,0.0,M,0.0,M,,*73
$GPGSA,A,3,01,02,03,04,05,06,07,08,09,10,11,12,1.0,1.0,1.0*30
$GPRMC,000051.045,A,0029.206,N,00106.244,W,389059.9,162.0,180223,000.0,W*5F
$GPGGA,000052.045,0113.508,S,00032.870,W,1,12,1.0,0.0,M,0.0,M,,*67
$GPGSA,A,3,01,02,03,04,05,06,07,08,09,10,11,12,1.0,1.0,1.0*30
$GPRMC,000052.045,A,0113.508,S,00032.870,W,410627.9,071.0,180223,000.0,W*40
$GPGGA,000053.045,0036.393,S,00114.919,E,1,12,1.0,0.0,M,0.0,M,,*7D
$GPGSA,A,3,01,02,03,04,05,06,07,08,09,10,11,12,1.0,1.0,1.0*30
$GPRMC,000053.045,A,0036.393,S,00114.919,E,432288.1,340.0,180223,000.0,W*52
$GPGGA,000054.045,0116.370,N,00033.876,E,1,12,1.0,0.0,M,0.0,M,,*65
$GPGSA,A,3,01,02,03,04,05,06,07,08,09,10,11,12,1.0,1.0,1.0*30
$GPRMC,000054.045,A,0116.370,N,00033.876,E,453854.5,249.0,180223,000.0,W*4A
$GPGGA,000055.045,0031.216,N,00123.755,W,1,12,1.0,0.0,M,0.0,M,,*7D
$GPGSA,A,3,01,02,03,04,05,06,07,08,09,10,11,12,1.0,1.0,1.0*30
$GPRMC,000055.045,A,0031.216,N,00123.755,W,475514.2,158.0,180223,000.0,W*5B
$GPGGA,000056.045,0131.173,S,00034.307,W,1,12,1.0,0.0,M,0.0,M,,*66
$GPGSA,A,3,01,02,03,04,05,06,07,08,09,10,11,12,1.0,1.0,1.0*30
$GPRMC,000056.045,A,0131.173,S,00034.307,W,497057.0,067.0,180223,000.0,W*41
$GPGGA,000057.045,0037.252,S,00132.723,E,1,12,1.0,0.0,M,0.0,M,,*77
$GPGSA,A,3,01,02,03,04,05,06,07,08,09,10,11,12,1.0,1.0,1.0*30
$GPRMC,000057.045,A,0037.252,S,00132.723,E,518741.2,336.0,180223,000.0,W*53
$GPGGA,000058.045,0134.299,N,00034.153,E,1,12,1.0,0.0,M,0.0,M,,*66
$GPGSA,A,3,01,02,03,04,05,06,07,08,09,10,11,12,1.0,1.0,1.0*30
$GPRMC,000058.045,A,0134.299,N,00034.153,E,540284.1,245.0,180223,000.0,W*45
$GPGGA,000059.045,0030.906,N,00141.793,W,1,12,1.0,0.0,M,0.0,M,,*74
$GPGSA,A,3,01,02,03,04,05,06,07,08,09,10,11,12,1.0,1.0,1.0*30
$GPRMC,000059.045,A,0030.906,N,00141.793,W,561964.0,154.0,180223,000.0,W*53
$GPGGA,000100.045,0149.306,S,00033.407,W,1,12,1.0,0.0,M,0.0,M,,*6B
$GPGSA,A,3,01,02,03,04,05,06,07,08,09,10,11,12,1.0,1.0,1.0*30
$GPRMC,000100.045,A,0149.306,S,00033.407,W,583481.1,063.0,180223,000.0,W*42
$GPGGA,000101.045,0035.759,S,00150.936,E,1,12,1.0,0.0,M,0.0,M,,*77
$GPGSA,A,3,01,02,03,04,05,06,07,08,09,10,11,12,1.0,1.0,1.0*30
$GPRMC,000101.045,A,0035.759,S,00150.936,E,605189.0,332.0,180223,000.0,W*58
$GPGGA,000102.045,0152.576,N,00032.064,E,1,12,1.0,0.0,M,0.0,M,,*6D
$GPGSA,A,3,01,02,03,04,05,06,07,08,09,10,11,12,1.0,1.0,1.0*30
$GPRMC,000102.045,A,0152.576,N,00032.064,E,626709.6,241.0,180223,000.0,W*4E
$GPGGA,000103.045,0028.219,N,00200.119,W,1,12,1.0,0.0,M,0.0,M,,*74
$GPGSA,A,3,01,02,03,04,05,06,07,08,09,10,11,12,1.0,1.0,1.0*30
$GPRMC,000103.045,A,0028.219,N,00200.119,W,648405.9,150.0,180223,000.0,W*5C
$GPGGA,000104.045,0207.666,S,00030.119,W,1,12,1.0,0.0,M,0.0,M,,*6C
$GPGSA,A,3,01,02,03,04,05,06,07,08,09,10,11,12,1.0,1.0,1.0*30
$GPRMC,000104.045,A,0207.666,S,00030.119,W,669902.8,059.0,180223,000.0,W*44
$GPGGA,000105.045,0031.869,S,00209.314,E,1,12,1.0,0.0,M,0.0,M,,*7E
$GPGSA,A,3,01,02,03,04,05,06,07,08,09,10,11,12,1.0,1.0,1.0*30
$GPRMC,000105.045,A,0031.869,S,00209.314,E,691627.6,328.0,180223,000.0,W*52
$GPGGA,000106.045,0210.957,N,00027.569,E,1,12,1.0,0.0,M,0.0,M,,*6F
$GPGSA,A,3,01,02,03,04,05,06,07,08,09,10,11,12,1.0,1.0,1.0*30
$GPRMC,000106.045,A,0210.957,N,00027.569,E,713133.9,237.0,180223,000.0,W*4A
$GPGGA,000107.045,0023.118,N,00218.488,W,1,12,1.0,0.0,M,0.0,M,,*7D
$GPGSA,A,3,01,02,03,04,05,06,07,08,09,10,11,12,1.0,1.0,1.0*30
$GPRMC,000107.045,A,0023.118,N,00218.488,W,734835.1,146.0,180223,000.0,W*5F
$GPGGA,000108.045,0226.006,S,00024.412,W,1,12,1.0,0.0,M,0.0,M,,*68
$GPGSA,A,3,01,02,03,04,05,06,07,08,09,10,11,12,1.0,1.0,1.0*30
$GPRMC,000108.045,A,0226.006,S,00024.412,W,756325.5,055.0,180223,000.0,W*43
$GPGGA,000109.045,0025.555,S,00227.610,E,1,12,1.0,0.0,M,0.0,M,,*78
$GPGSA,A,3,01,02,03,04,05,06,07,08,09,10,11,12,1.0,1.0,1.0*30
$GPRMC,000109.045,A,0025.555,S,00227.610,E,778051.7,324.0,180223,000.0,W*58
$GPGGA,000110.045,0229.193,N,00020.648,E,1,12,1.0,0.0,M,0.0,M,,*65
$GPGSA,A,3,01,02,03,04,05,06,07,08,09,10,11,12,1.0,1.0,1.0*30
$GPRMC,000110.045,A,0229.193,N,00020.648,E,799560.0,233.0,180223,000.0,W*4D
$GPGGA,000111.045,0015.590,N,00236.649,W,1,12,1.0,0.0,M,0.0,M,,*78
$GPGSA,A,3,01,02,03,04,05,06,07,08,09,10,11,12,1.0,1.0,1.0*30
$GPRMC,000111.045,A,0015.590,N,00236.649,W,821245.2,142.0,180223,000.0,W*5B
$GPGGA,000112.045,0244.076,S,00016.278,W,1,12,1.0,0.0,M,0.0,M,,*6B
$GPGSA,A,3,01,02,03,04,05,06,07,08,09,10,11,12,1.0,1.0,1.0*30
$GPRMC,000112.045,A,0244.076,S,00016.278,W,842752.6,051.0,180223,000.0,W*49
$GPGGA,000113.045,0016.815,S,00245.574,E,1,12,1.0,0.0,M,0.0,M,,*7F
$GPGSA,A,3,01,02,03,04,05,06,07,08,09,10,11,12,1.0,1.0,1.0*30
$GPRMC,000113.045,A,0016.815,S,00245.574,E,864454.5,320.0,180223,000.0,W*5A
$GPGGA,000114.045,0247.035,N,00011.305,E,1,12,1.0,0.0,M,0.0,M,,*6A
$GPGSA,A,3,01,02,03,04,05,06,07,08,09,10,11,12,1.0,1.0,1.0*30
$GPRMC,000114.045,A,0247.035,N,00011.305,E,885991.3,229.0,180223,000.0,W*4A
$GPGGA,000115.045,0005.645,N,00254.354,W,1,12,1.0,0.0,M,0.0,M,,*7B
$GPGSA,A,3,01,02,03,04,05,06,07,08,09,10,11,12,1.0,1.0,1.0*30
$GPRMC,000115.045,A,0005.645,N,00254.354,W,907628.0,138.0,180223,000.0,W*5D
$GPGGA,000116.045,0301.628,S,00005.733,W,1,12,1.0,0.0,M,0.0,M,,*6A
$GPGSA,A,3,01,02,03,04,05,06,07,08,09,10,11,12,1.0,1.0,1.0*30
$GPRMC,000116.045,A,0301.628,S,00005.733,W,929187.2,047.0,180223,000.0,W*49
$GPGGA,000117.045,0005.672,S,00302.957,E,1,12,1.0,0.0,M,0.0,M,,*79
$GPGSA,A,3,01,02,03,04,05,06,07,08,09,10,11,12,1.0,1.0,1.0*30
$GPRMC,000117.045,A,0005.672,S,00302.957,E,950827.4,316.0,180223,000.0,W*56
$GPGGA,000118.045,0304.234,N,00000.433,W,1,12,1.0,0.0,M,0.0,M,,*73
$GPGSA,A,3,01,02,03,04,05,06,07,08,09,10,11,12,1.0,1.0,1.0*30
$GPRMC,000118.045,A,0304.234,N,00000.433,W,972430.4,225.0,180223,000.0,W*57
$GPGGA,000119.045,0006.685,S,00311.352,W,1,12,1.0,0.0,M,0.0,M,,*63
$GPGSA,A,3,01,02,03,04,05,06,07,08,09,10,11,12,1.0,1.0,1.0*30
$GPRMC,000119.045,A,0006.685,S,00311.352,W,993974.0,134.0,180223,000.0,W*42
$GPGGA,000120.045,0318.411,S,00007.186,E,1,12,1.0,0.0,M,0.0,M,,*77
$GPGSA,A,3,01,02,03,04,05,06,07,08,09,10,11,12,1.0,1.0,1.0*30
$GPRMC,000120.045,A,0318.411,S,00007.186,E,1015631.7,043.0,180223,000.0,W*68
$GPGGA,000121.045,0007.831,N,00319.509,E,1,12,1.0,0.0,M,0.0,M,,*67
$GPGSA,A,3,01,02,03,04,05,06,07,08,09,10,11,12,1.0,1.0,1.0*30
$GPRMC,000121.045,A,0007.831,N,00319.509,E,1037160.5,312.0,180223,000.0,W*7E
$GPGGA,000122.045,0320.540,N,00014.516,W,1,12,1.0,0.0,M,0.0,M,,*7B
$GPGSA,A,3,01,02,03,04,05,06,07,08,09,10,11,12,1.0,1.0,1.0*30
$GPRMC,000122.045,A,0320.540,N,00014.516,W,1058879.3,221.0,180223,000.0,W*6D
$GPGGA,000123.045,0021.344,S,00327.398,W,1,12,1.0,0.0,M,0.0,M,,*64
$GPGSA,A,3,01,02,03,04,05,06,07,08,09,10,11,12,1.0,1.0,1.0*30
$GPRMC,000123.045,A,0021.344,S,00327.398,W,1080272.4,130.0,180223,000.0,W*72
$GPGGA,000124.045,0334.180,S,00022.416,E,1,12,1.0,0.0,M,0.0,M,,*7B
$GPGSA,A,3,01,02,03,04,05,06,07,08,09,10,11,12,1.0,1.0,1.0*30
$GPRMC,000124.045,A,0334.180,S,00022.416,E,1102087.6,039.0,180223,000.0,W*64
$GPGGA,000125.045,0023.626,N,00334.988,E,1,12,1.0,0.0,M,0.0,M,,*67
$GPGSA,A,3,01,02,03,04,05,06,07,08,09,10,11,12,1.0,1.0,1.0*30
$GPRMC,000125.045,A,0023.626,N,00334.988,E,1123443.1,308.0,180223,000.0,W*71
$GPGGA,000126.045,0335.713,N,00030.872,W,1,12,1.0,0.0,M,0.0,M,,*76
$GPGSA,A,3,01,02,03,04,05,06,07,08,09,10,11,12,1.0,1.0,1.0*30
$GPRMC,000126.045,A,0335.713,N,00030.872,W,1145338.9,217.0,180223,000.0,W*6C
$GPGGA,000127.045,0038.253,S,00342.249,W,1,12,1.0,0.0,M,0.0,M,,*61
$GPGSA,A,3,01,02,03,04,05,06,07,08,09,10,11,12,1.0,1.0,1.0*30
$GPRMC,000127.045,A,0038.253,S,00342.249,W,1166512.2,126.0,180223,000.0,W*7E
$GPGGA,000128.045,0348.696,S,00039.873,E,1,12,1.0,0.0,M,0.0,M,,*79
$GPGSA,A,3,01,02,03,04,05,06,07,08,09,10,11,12,1.0,1.0,1.0*30
$GPRMC,000128.045,A,0348.696,S,00039.873,E,1188555.0,035.0,180223,000.0,W*64
$GPGGA,000129.045,0041.624,N,00349.153,E,1,12,1.0,0.0,M,0.0,M,,*69
$GPGSA,A,3,01,02,03,04,05,06,07,08,09,10,11,12,1.0,1.0,1.0*30
$GPRMC,000129.045,A,0041.624,N,00349.153,E,1209664.3,304.0,180223,000.0,W*7D
$GPGGA,000130.045,0349.513,N,00049.404,W,1,12,1.0,0.0,M,0.0,M,,*7B
$GPGSA,A,3,01,02,03,04,05,06,07,08,09,10,11,12,1.0,1.0,1.0*30
$GPRMC,000130.045,A,0349.513,N,00049.404,W,1231809.1,213.0,180223,000.0,W*64
$GPGGA,000131.045,0057.312,S,00355.670,W,1,12,1.0,0.0,M,0.0,M,,*63
$GPGSA,A,3,01,02,03,04,05,06,07,08,09,10,11,12,1.0,1.0,1.0*30
$GPRMC,000131.045,A,0057.312,S,00355.670,W,1252682.8,122.0,180223,000.0,W*7C
$GPGGA,000132.045,0401.724,S,00059.450,E,1,12,1.0,0.0,M,0.0,M,,*7B
$GPGSA,A,3,01,02,03,04,05,06,07,08,09,10,11,12,1.0,1.0,1.0*30
$GPRMC,000132.045,A,0401.724,S,00059.450,E,1275033.0,031.0,180223,000.0,W*66
$GPGGA,000133.045,0101.713,N,00401.774,E,1,12,1.0,0.0,M,0.0,M,,*6A
$GPGSA,A,3,01,02,03,04,05,06,07,08,09,10,11,12,1.0,1.0,1.0*30
$GPRMC,000133.045,A,0101.713,N,00401.774,E,1295814.4,300.0,180223,000.0,W*71
$GPGGA,000134.045,0401.713,N,00109.995,W,1,12,1.0,0.0,M,0.0,M,,*76
$GPGSA,A,3,01,02,03,04,05,06,07,08,09,10,11,12,1.0,1.0,1.0*30
$GPRMC,000134.045,A,0401.713,N,00109.995,W,1318288.6,209.0,180223,000.0,W*6C
$GPGGA,000135.045,0118.398,S,00407.436,W,1,12,1.0,0.0,M,0.0,M,,*6F
$GPGSA,A,3,01,02,03,04,05,06,07,08,09,10,11,12,1.0,1.0,1.0*30
$GPRMC,000135.045,A,0118.398,S,00407.436,W,1338775.3,118.0,180223,000.0,W*76
$GPGGA,000136.045,0413.041,S,00121.021,E,1,12,1.0,0.0,M,0.0,M,,*74
$GPGSA,A,3,01,02,03,04,05,06,07,08,09,10,11,12,1.0,1.0,1.0*30
$GPRMC,000136.045,A,0413.041,S,00121.021,E,1361519.7,027.0,180223,000.0,W*60
$GPGGA,000137.045,0123.759,N,00412.629,E,1,12,1.0,0.0,M,0.0,M,,*6B
$GPGSA,A,3,01,02,03,04,05,06,07,08,09,10,11,12,1.0,1.0,1.0*30
$GPRMC,000137.045,A,0123.759,N,00412.629,E,1381885.5,296.0,180223,000.0,W*73
$GPGGA,000138.045,0412.094,N,00132.508,W,1,12,1.0,0.0,M,0.0,M,,*70
$GPGSA,A,3,01,02,03,04,05,06,07,08,09,10,11,12,1.0,1.0,1.0*30
$GPRMC,000138.045,A,0412.094,N,00132.508,W,1404775.4,205.0,180223,000.0,W*69
$GPGGA,000139.045,0141.366,S,00417.329,W,1,12,1.0,0.0,M,0.0,M,,*66
$GPGSA,A,3,01,02,03,04,05,06,07,08,09,10,11,12,1.0,1.0,1.0*30
$GPRMC,000139.045,A,0141.366,S,00417.329,W,1424783.7,114.0,180223,000.0,W*74
$GPGGA,000140.045,0422.434,S,00144.435,E,1,12,1.0,0.0,M,0.0,M,,*73
$GPGSA,A,3,01,02,03,04,05,06,07,08,09,10,11,12,1.0,1.0,1.0*30
$GPRMC,000140.045,A,0422.434,S,00144.435,E,1448012.5,023.0,180223,000.0,W*63
$GPGGA,000141.045,0147.609,N,00421.509,E,1,12,1.0,0.0,M,0.0,M,,*6D
$GPGSA,A,3,01,02,03,04,05,06,07,08,09,10,11,12,1.0,1.0,1.0*30
$GPRMC,000141.045,A,0147.609,N,00421.509,E,1467873.6,292.0,180223,000.0,W*74
$GPGGA,000142.045,0420.449,N,00156.782,W,1,12,1.0,0.0,M,0.0,M,,*7A
$GPGSA,A,3,01,02,03,04,05,06,07,08,09,10,11,12,1.0,1.0,1.0*30
$GPRMC,000142.045,A,0420.449,N,00156.782,W,1491267.0,201.0,180223,000.0,W*69
$GPGGA,000143.045,0206.054,S,00425.146,W,1,12,1.0,0.0,M,0.0,M,,*63
$GPGSA,A,3,01,02,03,04,05,06,07,08,09,10,11,12,1.0,1.0,1.0*30
$GPRMC,000143.045,A,0206.054,S,00425.146,W,1510706.3,110.0,180223,000.0,W*7A
$GPGGA,000144.045,0429.702,S,00209.525,E,1,12,1.0,0.0,M,0.0,M,,*70
$GPGSA,A,3,01,02,03,04,05,06,07,08,09,10,11,12,1.0,1.0,1.0*30
$GPRMC,000144.045,A,0429.702,S,00209.525,E,1534508.4,019.0,180223,000.0,W*6C
$GPGGA,000145.045,0213.089,N,00428.217,E,1,12,1.0,0.0,M,0.0,M,,*64
$GPGSA,A,3,01,02,03,04,05,06,07,08,09,10,11,12,1.0,1.0,1.0*30
$GPRMC,000145.045,A,0213.089,N,00428.217,E,1553778.8,288.0,180223,000.0,W*7A
$GPGGA,000146.045,0426.584,N,00222.640,W,1,12,1.0,0.0,M,0.0,M,,*77
$GPGSA,A,3,01,02,03,04,05,06,07,08,09,10,11,12,1.0,1.0,1.0*30
$GPRMC,000146.045,A,0426.584,N,00222.640,W,1577760.7,197.0,180223,000.0,W*64
$GPGGA,000147.045,0232.277,S,00430.698,W,1,12,1.0,0.0,M,0.0,M,,*63
$GPGSA,A,3,01,02,03,04,05,06,07,08,09,10,11,12,1.0,1.0,1.0*30
$GPRMC,000147.045,A,0232.277,S,00430.698,W,1596546.6,106.0,180223,000.0,W*70
$GPGGA,000148.045,0434.660,S,00236.102,E,1,12,1.0,0.0,M,0.0,M,,*78
$GPGSA,A,3,01,02,03,04,05,06,07,08,09,10,11,12,1.0,1.0,1.0*30
$GPRMC,000148.045,A,0434.660,S,00236.102,E,1621004.4,015.0,180223,000.0,W*66
$GPGGA,000149.045,0240.006,N,00432.570,E,1,12,1.0,0.0,M,0.0,M,,*64
$GPGSA,A,3,01,02,03,04,05,06,07,08,09,10,11,12,1.0,1.0,1.0*30
$GPRMC,000149.045,A,0240.006,N,00432.570,E,1639607.2,284.0,180223,000.0,W*7A
$GPGGA,000150.045,0430.323,N,00249.885,W,1,12,1.0,0.0,M,0.0,M,,*76
$GPGSA,A,3,01,02,03,04,05,06,07,08,09,10,11,12,1.0,1.0,1.0*30
$GPRMC,000150.045,A,0430.323,N,00249.885,W,1664253.5,193.0,180223,000.0,W*67
$GPGGA,000151.045,0259.836,S,00433.812,W,1,12,1.0,0.0,M,0.0,M,,*69
$GPGSA,A,3,01,02,03,04,05,06,07,08,09,10,11,12,1.0,1.0,1.0*30
$GPRMC,000151.045,A,0259.836,S,00433.812,W,1682314.5,102.0,180223,000.0,W*7A
$GPGGA,000152.045,0437.139,S,00303.961,E,1,12,1.0,0.0,M,0.0,M,,*71
$GPGSA,A,3,01,02,03,04,05,06,07,08,09,10,11,12,1.0,1.0,1.0*30
$GPRMC,000152.045,A,0437.139,S,00303.961,E,1707497.5,011.0,180223,000.0,W*61
$GPGGA,000153.045,0308.152,N,00434.405,E,1,12,1.0,0.0,M,0.0,M,,*67
$GPGSA,A,3,01,02,03,04,05,06,07,08,09,10,11,12,1.0,1.0,1.0*30
$GPRMC,000153.045,A,0308.152,N,00434.405,E,1725371.1,280.0,180223,000.0,W*76
$GPGGA,000154.045,0431.503,N,00318.303,W,1,12,1.0,0.0,M,0.0,M,,*77
$GPGSA,A,3,01,02,03,04,05,06,07,08,09,10,11,12,1.0,1.0,1.0*30
$GPRMC,000154.045,A,0431.503,N,00318.303,W,1750742.7,189.0,180223,000.0,W*6C
$GPGGA,000155.045,0328.513,S,00434.330,W,1,12,1.0,0.0,M,0.0,M,,*6C
$GPGSA,A,3,01,02,03,04,05,06,07,08,09,10,11,12,1.0,1.0,1.0*30
$GPRMC,000155.045,A,0328.513,S,00434.330,W,1768026.2,098.0,180223,000.0,W*7D
$GPGGA,000156.045,0436.986,S,00332.882,E,1,12,1.0,0.0,M,0.0,M,,*76
$GPGSA,A,3,01,02,03,04,05,06,07,08,09,10,11,12,1.0,1.0,1.0*30
$GPRMC,000156.045,A,0436.986,S,00332.882,E,1793984.4,007.0,180223,000.0,W*62
$GPGGA,000157.045,0337.302,N,00433.573,E,1,12,1.0,0.0,M,0.0,M,,*6F
$GPGSA,A,3,01,02,03,04,05,06,07,08,09,10,11,12,1.0,1.0,1.0*30
$GPRMC,000157.045,A,0337.302,N,00433.573,E,1811089.1,276.0,180223,000.0,W*7B
$GPGGA,000158.045,0429.984,N,00347.667,W,1,12,1.0,0.0,M,0.0,M,,*7C
$GPGSA,A,3,01,02,03,04,05,06,07,08,09,10,11,12,1.0,1.0,1.0*30
$GPRMC,000158.045,A,0429.984,N,00347.667,W,1837224.7,185.0,180223,000.0,W*60
$GPGGA,000159.045,0358.075,S,00432.116,W,1,12,1.0,0.0,M,0.0,M,,*62
$GPGSA,A,3,01,02,03,04,05,06,07,08,09,10,11,12,1.0,1.0,1.0*30
$GPRMC,000159.045,A,0358.075,S,00432.116,W,1853704.5,094.0,180223,000.0,W*78
$GPGGA,000200.045,0434.070,S,00402.627,E,1,12,1.0,0.0,M,0.0,M,,*71
$GPGSA,A,3,01,02,03,04,05,06,07,08,09,10,11,12,1.0,1.0,1.0*30
$GPRMC,000200.045,A,0434.070,S,00402.627,E,1880461.7,003.0,180223,000.0,W*69
$GPGGA,000201.045,0407.215,N,00429.946,E,1,12,1.0,0.0,M,0.0,M,,*6D
$GPGSA,A,3,01,02,03,04,05,06,07,08,09,10,11,12,1.0,1.0,1.0*30
$GPRMC,000201.045,A,0407.215,N,00429.946,E,1896785.9,272.0,180223,000.0,W*71
$GPGGA,000202.045,0425.642,N,00417.732,W,1,12,1.0,0.0,M,0.0,M,,*7A
$GPGSA,A,3,01,02,03,04,05,06,07,08,09,10,11,12,1.0,1.0,1.0*30
$GPRMC,000202.045,A,0425.642,N,00417.732,W,1923695.2,181.0,180223,000.0,W*6D
$GPGGA,000203.045,0428.277,S,00427.051,W,1,12,1.0,0.0,M,0.0,M,,*68
$GPGSA,A,3,01,02,03,04,05,06,07,08,09,10,11,12,1.0,1.0,1.0*30
$GPRMC,000203.045,A,0428.277,S,00427.051,W,1939377.7,090.0,180223,000.0,W*79
$GPGGA,000204.045,0428.277,S,00432.949,E,1,12,1.0,0.0,M,0.0,M,,*79
$GPGSA,A,3,01,02,03,04,05,06,07,08,09,10,11,12,1.0,1.0,1.0*30
$GPRMC,000204.045,A,0428.277,S,00432.949,E,1966924.2,359.0,180223,000.0,W*6D
$GPGGA,000205.045,0437.640,N,00423.420,E,1,12,1.0,0.0,M,0.0,M,,*69
$GPGSA,A,3,01,02,03,04,05,06,07,08,09,10,11,12,1.0,1.0,1.0*30
$GPRMC,000205.045,A,0437.640,N,00423.420,E,1982491.3,268.0,180223,000.0,W*76
$GPGGA,000206.045,0418.376,N,00448.244,W,1,12,1.0,0.0,M,0.0,M,,*7C
$GPGSA,A,3,01,02,03,04,05,06,07,08,09,10,11,12,1.0,1.0,1.0*30
$GPRMC,000206.045,A,0418.376,N,00448.244,W,2010147.9,177.0,180223,000.0,W*6B
$GPGGA,000207.045,0458.860,S,00419.041,W,1,12,1.0,0.0,M,0.0,M,,*6B
$GPGSA,A,3,01,02,03,04,05,06,07,08,09,10,11,12,1.0,1.0,1.0*30
$GPRMC,000207.045,A,0458.860,S,00419.041,W,2025078.6,086.0,180223,000.0,W*77
$GPGGA,000208.045,0419.517,S,00503.585,E,1,12,1.0,0.0,M,0.0,M,,*79
$GPGSA,A,3,01,02,03,04,05,06,07,08,09,10,11,12,1.0,1.0,1.0*30
$GPRMC,000208.045,A,0419.517,S,00503.585,E,2053365.0,355.0,180223,000.0,W*60
$GPGGA,000209.045,0508.314,N,00413.907,E,1,12,1.0,0.0,M,0.0,M,,*67
$GPGSA,A,3,01,02,03,04,05,06,07,08,09,10,11,12,1.0,1.0,1.0*30
$GPRMC,000209.045,A,0508.314,N,00413.907,E,2068238.6,264.0,180223,000.0,W*7A
$GPGGA,000210.045,0408.105,N,00518.938,W,1,12,1.0,0.0,M,0.0,M,,*78
$GPGSA,A,3,01,02,03,04,05,06,07,08,09,10,11,12,1.0,1.0,1.0*30
$GPRMC,000210.045,A,0408.105,N,00518.938,W,2096573.4,173.0,180223,000.0,W*6B
$GPGGA,000211.045,0529.556,S,00408.010,W,1,12,1.0,0.0,M,0.0,M,,*67
$GPGSA,A,3,01,02,03,04,05,06,07,08,09,10,11,12,1.0,1.0,1.0*30
$GPRMC,000211.045,A,0529.556,S,00408.010,W,2110842.3,082.0,180223,000.0,W*7C
$GPGGA,000212.045,0407.723,S,00534.268,E,1,12,1.0,0.0,M,0.0,M,,*78
$GPGSA,A,3,01,02,03,04,05,06,07,08,09,10,11,12,1.0,1.0,1.0*30
$GPRMC,000212.045,A,0407.723,S,00534.268,E,2139773.1,351.0,180223,000.0,W*6A
$GPGGA,000213.045,0538.964,N,00401.346,E,1,12,1.0,0.0,M,0.0,M,,*6E
$GPGSA,A,3,01,02,03,04,05,06,07,08,09,10,11,12,1.0,1.0,1.0*30
$GPRMC,000213.045,A,0538.964,N,00401.346,E,2154062.3,260.0,180223,000.0,W*71
$GPGGA,000214.045,0354.775,N,00549.539,W,1,12,1.0,0.0,M,0.0,M,,*7A
$GPGSA,A,3,01,02,03,04,05,06,07,08,09,10,11,12,1.0,1.0,1.0*30
$GPRMC,000214.045,A,0354.775,N,00549.539,W,2182958.0,169.0,180223,000.0,W*67
$GPGGA,000215.045,0600.091,S,00353.909,W,1,12,1.0,0.0,M,0.0,M,,*6D
$GPGSA,A,3,01,02,03,04,05,06,07,08,09,10,11,12,1.0,1.0,1.0*30
$GPRMC,000215.045,A,0600.091,S,00353.909,W,2196704.0,078.0,180223,000.0,W*73
$GPGGA,000216.045,0352.849,S,00604.717,E,1,12,1.0,0.0,M,0.0,M,,*75
$GPGSA,A,3,01,02,03,04,05,06,07,08,09,10,11,12,1.0,1.0,1.0*30
$GPRMC,000216.045,A,0352.849,S,00604.717,E,2226133.2,347.0,180223,000.0,W*6C
$GPGGA,000217.045,0609.312,N,00345.698,E,1,12,1.0,0.0,M,0.0,M,,*61
$GPGSA,A,3,01,02,03,04,05,06,07,08,09,10,11,12,1.0,1.0,1.0*30
$GPRMC,000217.045,A,0609.312,N,00345.698,E,2239996.0,256.0,180223,000.0,W*72
$GPGGA,000218.045,0338.353,N,00619.767,W,1,12,1.0,0.0,M,0.0,M,,*73
$GPGSA,A,3,01,02,03,04,05,06,07,08,09,10,11,12,1.0,1.0,1.0*30
$GPRMC,000218.045,A,0338.353,N,00619.767,W,2269282.4,165.0,180223,000.0,W*6C
$GPGGA,000219.045,0630.181,S,00336.711,W,1,12,1.0,0.0,M,0.0,M,,*66
$GPGSA,A,3,01,02,03,04,05,06,07,08,09,10,11,12,1.0,1.0,1.0*30
$GPRMC,000219.045,A,0630.181,S,00336.711,W,2282696.7,074.0,180223,000.0,W*7F
$GPGGA,000220.045,0334.875,S,00634.652,E,1,12,1.0,0.0,M,0.0,M,,*7C
$GPGSA,A,3,01,02,03,04,05,06,07,08,09,10,11,12,1.0,1.0,1.0*30
$GPRMC,000220.045,A,0334.875,S,00634.652,E,2312423.6,343.0,180223,000.0,W*67
$GPGGA,000221.045,0639.072,N,00326.949,E,1,12,1.0,0.0,M,0.0,M,,*64
$GPGSA,A,3,01,02,03,04,05,06,07,08,09,10,11,12,1.0,1.0,1.0*30
$GPRMC,000221.045,A,0639.072,N,00326.949,E,2326069.6,252.0,180223,000.0,W*73
$GPGGA,000222.045,0318.829,N,00649.336,W,1,12,1.0,0.0,M,0.0,M,,*7B
$GPGSA,A,3,01,02,03,04,05,06,07,08,09,10,11,12,1.0,1.0,1.0*30
$GPRMC,000222.045,A,0318.829,N,00649.336,W,2355520.7,161.0,180223,000.0,W*62
$GPGGA,000223.045,0659.540,S,00316.414,W,1,12,1.0,0.0,M,0.0,M,,*6D
$GPGSA,A,3,01,02,03,04,05,06,07,08,09,10,11,12,1.0,1.0,1.0*30
$GPRMC,000223.045,A,0659.540,S,00316.414,W,2368847.8,070.0,180223,000.0,W*78
$GPGGA,000224.045,0313.806,S,00703.783,E,1,12,1.0,0.0,M,0.0,M,,*71
$GPGSA,A,3,01,02,03,04,05,06,07,08,09,10,11,12,1.0,1.0,1.0*30
$GPRMC,000224.045,A,0313.806,S,00703.783,E,2398616.1,339.0,180223,000.0,W*66
$GPGGA,000225.045,0707.958,N,00305.110,E,1,12,1.0,0.0,M,0.0,M,,*68
$GPGSA,A,3,01,02,03,04,05,06,07,08,09,10,11,12,1.0,1.0,1.0*30
$GPRMC,000225.045,A,0707.958,N,00305.110,E,2412306.9,248.0,180223,000.0,W*71
$GPGGA,000226.045,0256.222,N,00717.958,W,1,12,1.0,0.0,M,0.0,M,,*7D
$GPGSA,A,3,01,02,03,04,05,06,07,08,09,10,11,12,1.0,1.0,1.0*30
$GPRMC,000226.045,A,0256.222,N,00717.958,W,2441640.0,157.0,180223,000.0,W*61
$GPGGA,000227.045,0727.880,S,00253.042,W,1,12,1.0,0.0,M,0.0,M,,*67
$GPGSA,A,3,01,02,03,04,05,06,07,08,09,10,11,12,1.0,1.0,1.0*30
$GPRMC,000227.045,A,0727.880,S,00253.042,W,2455177.7,066.0,180223,000.0,W*79
$GPGGA,000228.045,0249.672,S,00731.823,E,1,12,1.0,0.0,M,0.0,M,,*7A
$GPGSA,A,3,01,02,03,04,05,06,07,08,09,10,11,12,1.0,1.0,1.0*30
$GPRMC,000228.045,A,0249.672,S,00731.823,E,2484675.3,335.0,180223,000.0,W*6C
$GPGGA,000229.045,0735.680,N,00240.217,E,1,12,1.0,0.0,M,0.0,M,,*6B
$GPGSA,A,3,01,02,03,04,05,06,07,08,09,10,11,12,1.0,1.0,1.0*30
$GPRMC,000229.045,A,0735.680,N,00240.217,E,2498723.4,244.0,180223,000.0,W*72
$GPGGA,000230.045,0230.574,N,00745.344,W,1,12,1.0,0.0,M,0.0,M,,*7E
$GPGSA,A,3,01,02,03,04,05,06,07,08,09,10,11,12,1.0,1.0,1.0*30
$GPRMC,000230.045,A,0230.574,N,00745.344,W,2527600.5,153.0,180223,000.0,W*66
$GPGGA,000231.045,0754.912,S,00226.643,W,1,12,1.0,0.0,M,0.0,M,,*6B
$GPGSA,A,3,01,02,03,04,05,06,07,08,09,10,11,12,1.0,1.0,1.0*30
$GPRMC,000231.045,A,0754.912,S,00226.643,W,2541697.1,062.0,180223,000.0,W*7A
$GPGGA,000232.045,0222.527,S,00758.484,E,1,12,1.0,0.0,M,0.0,M,,*71
$GPGSA,A,3,01,02,03,04,05,06,07,08,09,10,11,12,1.0,1.0,1.0*30
$GPRMC,000232.045,A,0222.527,S,00758.484,E,2570559.5,331.0,180223,000.0,W*62
$GPGGA,000233.045,0801.952,N,00212.330,E,1,12,1.0,0.0,M,0.0,M,,*6B
$GPGSA,A,3,01,02,03,04,05,06,07,08,09,10,11,12,1.0,1.0,1.0*30
$GPRMC,000233.045,A,0801.952,N,00212.330,E,2585325.1,240.0,180223,000.0,W*7C
$GPGGA,000234.045,0201.952,N,00811.208,W,1,12,1.0,0.0,M,0.0,M,,*77
$GPGSA,A,3,01,02,03,04,05,06,07,08,09,10,11,12,1.0,1.0,1.0*30
$GPRMC,000234.045,A,0201.952,N,00811.208,W,2613356.5,149.0,180223,000.0,W*66
$GPGGA,000235.045,0820.352,S,00157.291,W,1,12,1.0,0.0,M,0.0,M,,*63
$GPGSA,A,3,01,02,03,04,05,06,07,08,09,10,11,12,1.0,1.0,1.0*30
$GPRMC,000235.045,A,0820.352,S,00157.291,W,2628406.4,058.0,180223,000.0,W*78
$GPGGA,000236.045,0152.451,S,00823.481,E,1,12,1.0,0.0,M,0.0,M,,*77
$GPGSA,A,3,01,02,03,04,05,06,07,08,09,10,11,12,1.0,1.0,1.0*30
$GPRMC,000236.045,A,0152.451,S,00823.481,E,2656221.6,327.0,180223,000.0,W*6F
$GPGGA,000237.045,0826.488,N,00141.537,E,1,12,1.0,0.0,M,0.0,M,,*64
$GPGSA,A,3,01,02,03,04,05,06,07,08,09,10,11,12,1.0,1.0,1.0*30
$GPRMC,000237.045,A,0826.488,N,00141.537,E,2672107.2,236.0,180223,000.0,W*78
$GPGGA,000238.045,0130.449,N,00835.267,W,1,12,1.0,0.0,M,0.0,M,,*72
$GPGSA,A,3,01,02,03,04,05,06,07,08,09,10,11,12,1.0,1.0,1.0*30
$GPRMC,000238.045,A,0130.449,N,00835.267,W,2698858.6,145.0,180223,000.0,W*6A
$GPGGA,000239.045,0843.915,S,00125.085,W,1,12,1.0,0.0,M,0.0,M,,*61
$GPGSA,A,3,01,02,03,04,05,06,07,08,09,10,11,12,1.0,1.0,1.0*30
$GPRMC,000239.045,A,0843.915,S,00125.085,W,2715294.9,054.0,180223,000.0,W*79
$GPGGA,000240.045,0119.550,S,00846.532,E,1,12,1.0,0.0,M,0.0,M,,*73
$GPGSA,A,3,01,02,03,04,05,06,07,08,09,10,11,12,1.0,1.0,1.0*30
$GPRMC,000240.045,A,0119.550,S,00846.532,E,2741612.1,323.0,180223,000.0,W*6B
$GPGGA,000241.045,0849.011,N,00107.949,E,1,12,1.0,0.0,M,0.0,M,,*6F
$GPGSA,A,3,01,02,03,04,05,06,07,08,09,10,11,12,1.0,1.0,1.0*30
$GPRMC,000241.045,A,0849.011,N,00107.949,E,2759054.5,232.0,180223,000.0,W*7F
$GPGGA,000242.045,0056.183,N,00857.243,W,1,12,1.0,0.0,M,0.0,M,,*7F
$GPGSA,A,3,01,02,03,04,05,06,07,08,09,10,11,12,1.0,1.0,1.0*30
$GPRMC,000242.045,A,0056.183,N,00857.243,W,2784056.2,141.0,180223,000.0,W*6D
$GPGGA,000243.045,0905.328,S,00050.149,W,1,12,1.0,0.0,M,0.0,M,,*69
$GPGSA,A,3,01,02,03,04,05,06,07,08,09,10,11,12,1.0,1.0,1.0*30
$GPRMC,000243.045,A,0905.328,S,00050.149,W,2802341.8,050.0,180223,000.0,W*74
$GPGGA,000244.045,0043.954,S,00907.366,E,1,12,1.0,0.0,M,0.0,M,,*72
$GPGSA,A,3,01,02,03,04,05,06,07,08,09,10,11,12,1.0,1.0,1.0*30
$GPRMC,000244.045,A,0043.954,S,00907.366,E,2826682.0,319.0,180223,000.0,W*65
$GPGGA,000245.045,0909.248,N,00031.703,E,1,12,1.0,0.0,M,0.0,M,,*64
$GPGSA,A,3,01,02,03,04,05,06,07,08,09,10,11,12,1.0,1.0,1.0*30
$GPRMC,000245.045,A,0909.248,N,00031.703,E,2846142.4,228.0,180223,000.0,W*79
$GPGGA,000246.045,0019.296,N,00916.867,W,1,12,1.0,0.0,M,0.0,M,,*7F
$GPGSA,A,3,01,02,03,04,05,06,07,08,09,10,11,12,1.0,1.0,1.0*30
$GPRMC,000246.045,A,0019.296,N,00916.867,W,2868902.0,137.0,180223,000.0,W*6B
$GPGGA,000247.045,0924.324,S,00012.633,W,1,12,1.0,0.0,M,0.0,M,,*6E
$GPGSA,A,3,01,02,03,04,05,06,07,08,09,10,11,12,1.0,1.0,1.0*30
$GPRMC,000247.045,A,0924.324,S,00012.633,W,2889517.3,046.0,180223,000.0,W*79
$GPGGA,000248.045,0005.819,S,00925.716,E,1,12,1.0,0.0,M,0.0,M,,*77
$GPGSA,A,3,01,02,03,04,05,06,07,08,09,10,11,12,1.0,1.0,1.0*30
$GPRMC,000248.045,A,0005.819,S,00925.716,E,2911387.4,315.0,180223,000.0,W*6D
$GPGGA,000249.045,0926.938,N,00007.040,W,1,12,1.0,0.0,M,0.0,M,,*7E
$GPGSA,A,3,01,02,03,04,05,06,07,08,09,10,11,12,1.0,1.0,1.0*30
$GPRMC,000249.045,A,0926.938,N,00007.040,W,2933338.7,224.0,180223,000.0,W*60
$GPGGA,000250.045,0020.044,S,00933.881,W,1,12,1.0,0.0,M,0.0,M,,*6D
$GPGSA,A,3,01,02,03,04,05,06,07,08,09,10,11,12,1.0,1.0,1.0*30
$GPRMC,000250.045,A,0020.044,S,00933.881,W,2953355.9,133.0,180223,000.0,W*75
$GPGGA,000251.045,0940.646,S,00027.291,E,1,12,1.0,0.0,M,0.0,M,,*72
$GPGSA,A,3,01,02,03,04,05,06,07,08,09,10,11,12,1.0,1.0,1.0*30
$GPRMC,000251.045,A,0940.646,S,00027.291,E,2976785.2,042.0,180223,000.0,W*68
$GPGGA,000252.045,0034.678,N,00941.332,E,1,12,1.0,0.0,M,0.0,M,,*6A
$GPGSA,A,3,01,02,03,04,05,06,07,08,09,10,11,12,1.0,1.0,1.0*30
$GPRMC,000252.045,A,0034.678,N,00941.332,E,2995693.7,311.0,180223,000.0,W*7B
$GPGGA,000253.045,0941.831,N,00048.096,W,1,12,1.0,0.0,M,0.0,M,,*7C
$GPGSA,A,3,01,02,03,04,05,06,07,08,09,10,11,12,1.0,1.0,1.0*30
$GPRMC,000253.045,A,0941.831,N,00048.096,W,3020606.5,220.0,180223,000.0,W*66
$GPGGA,000254.045,0101.646,S,00948.038,W,1,12,1.0,0.0,M,0.0,M,,*69
$GPGSA,A,3,01,02,03,04,05,06,07,08,09,10,11,12,1.0,1.0,1.0*30
$GPRMC,000254.045,A,0101.646,S,00948.038,W,3037390.4,129.0,180223,000.0,W*74
$GPGGA,000255.045,0954.051,S,00109.428,E,1,12,1.0,0.0,M,0.0,M,,*7A
$GPGSA,A,3,01,02,03,04,05,06,07,08,09,10,11,12,1.0,1.0,1.0*30
$GPRMC,000255.045,A,0954.051,S,00109.428,E,3064105.8,038.0,180223,000.0,W*62
$GPGGA,000256.045,0117.334,N,00953.971,E,1,12,1.0,0.0,M,0.0,M,,*6D
$GPGSA,A,3,01,02,03,04,05,06,07,08,09,10,11,12,1.0,1.0,1.0*30
$GPRMC,000256.045,A,0117.334,N,00953.971,E,3079580.8,307.0,180223,000.0,W*7F
$GPGGA,000257.045,0953.691,N,00131.258,W,1,12,1.0,0.0,M,0.0,M,,*70
$GPGSA,A,3,01,02,03,04,05,06,07,08,09,10,11,12,1.0,1.0,1.0*30
$GPRMC,000257.045,A,0953.691,N,00131.258,W,3107906.7,216.0,180223,000.0,W*66
$GPGGA,000258.045,0145.300,S,00959.104,W,1,12,1.0,0.0,M,0.0,M,,*6C
$GPGSA,A,3,01,02,03,04,05,06,07,08,09,10,11,12,1.0,1.0,1.0*30
$GPRMC,000258.045,A,0145.300,S,00959.104,W,3120995.2,125.0,180223,000.0,W*73
$GPGGA,000259.045,1004.311,S,00153.558,E,1,12,1.0,0.0,M,0.0,M,,*75
$GPGSA,A,3,01,02,03,04,05,06,07,08,09,10,11,12,1.0,1.0,1.0*30
$GPRMC,000259.045,A,1004.311,S,00153.558,E,3151438.8,034.0,180223,000.0,W*6D
$GPGGA,000300.045,0201.926,N,01003.411,E,1,12,1.0,0.0,M,0.0,M,,*64
$GPGSA,A,3,01,02,03,04,05,06,07,08,09,10,11,12,1.0,1.0,1.0*30
$GPRMC,000300.045,A,0201.926,N,01003.411,E,3163047.8,303.0,180223,000.0,W*76
$GPGGA,000301.045,1002.297,N,00216.297,W,1,12,1.0,0.0,M,0.0,M,,*79
$GPGSA,A,3,01,02,03,04,05,06,07,08,09,10,11,12,1.0,1.0,1.0*30
$GPRMC,000301.045,A,1002.297,N,00216.297,W,3195201.5,212.0,180223,000.0,W*6E
$GPGGA,000302.045,0230.769,S,01006.865,W,1,12,1.0,0.0,M,0.0,M,,*64
$GPGSA,A,3,01,02,03,04,05,06,07,08,09,10,11,12,1.0,1.0,1.0*30
$GPRMC,000302.045,A,0230.769,S,01006.865,W,3204181.6,121.0,180223,000.0,W*73
$GPGGA,000303.045,1011.213,S,00239.443,E,1,12,1.0,0.0,M,0.0,M,,*78
$GPGSA,A,3,01,02,03,04,05,06,07,08,09,10,11,12,1.0,1.0,1.0*30
$GPRMC,000303.045,A,1011.213,S,00239.443,E,3238746.9,030.0,180223,000.0,W*63
$GPGGA,000304.045,0248.210,N,01009.443,E,1,12,1.0,0.0,M,0.0,M,,*6E
$GPGSA,A,3,01,02,03,04,05,06,07,08,09,10,11,12,1.0,1.0,1.0*30
$GPRMC,000304.045,A,0248.210,N,01009.443,E,3246117.0,299.0,180223,000.0,W*76
$GPGGA,000305.045,1007.447,N,00302.963,W,1,12,1.0,0.0,M,0.0,M,,*77
$GPGSA,A,3,01,02,03,04,05,06,07,08,09,10,11,12,1.0,1.0,1.0*30
$GPRMC,000305.045,A,1007.447,N,00302.963,W,3282457.1,208.0,180223,000.0,W*6F
$GPGGA,000306.045,0317.801,S,01011.121,W,1,12,1.0,0.0,M,0.0,M,,*6A
$GPGSA,A,3,01,02,03,04,05,06,07,08,09,10,11,12,1.0,1.0,1.0*30
$GPRMC,000306.045,A,0317.801,S,01011.121,W,3286986.1,117.0,180223,000.0,W*7A
$GPGGA,000307.045,1014.564,S,00326.823,E,1,12,1.0,0.0,M,0.0,M,,*7B
$GPGSA,A,3,01,02,03,04,05,06,07,08,09,10,11,12,1.0,1.0,1.0*30
$GPRMC,000307.045,A,1014.564,S,00326.823,E,3325998.0,026.0,180223,000.0,W*6E
$GPGGA,000308.045,0335.921,N,01011.878,E,1,12,1.0,0.0,M,0.0,M,,*6D
$GPGSA,A,3,01,02,03,04,05,06,07,08,09,10,11,12,1.0,1.0,1.0*30
$GPRMC,000308.045,A,0335.921,N,01011.878,E,3328836.6,295.0,180223,000.0,W*7C
$GPGGA,000309.045,1008.956,N,00350.988,W,1,12,1.0,0.0,M,0.0,M,,*7B
$GPGSA,A,3,01,02,03,04,05,06,07,08,09,10,11,12,1.0,1.0,1.0*30
$GPRMC,000309.045,A,1008.956,N,00350.988,W,3369645.9,204.0,180223,000.0,W*62
$GPGGA,000310.045,0406.122,S,01011.694,W,1,12,1.0,0.0,M,0.0,M,,*6B
$GPGSA,A,3,01,02,03,04,05,06,07,08,09,10,11,12,1.0,1.0,1.0*30
$GPRMC,000310.045,A,0406.122,S,01011.694,W,3369472.4,113.0,180223,000.0,W*7C
$GPGGA,000311.045,1014.191,S,00415.422,E,1,12,1.0,0.0,M,0.0,M,,*78
$GPGSA,A,3,01,02,03,04,05,06,07,08,09,10,11,12,1.0,1.0,1.0*30
$GPRMC,000311.045,A,1014.191,S,00415.422,E,3413167.1,022.0,180223,000.0,W*62
$GPGGA,000312.045,0424.779,N,01010.549,E,1,12,1.0,0.0,M,0.0,M,,*6C
$GPGSA,A,3,01,02,03,04,05,06,07,08,09,10,11,12,1.0,1.0,1.0*30
$GPRMC,000312.045,A,0424.779,N,01010.549,E,3411281.7,291.0,180223,000.0,W*73
$GPGGA,000313.045,1006.662,N,00440.087,W,1,12,1.0,0.0,M,0.0,M,,*76
$GPGSA,A,3,01,02,03,04,05,06,07,08,09,10,11,12,1.0,1.0,1.0*30
$GPRMC,000313.045,A,1006.662,N,00440.087,W,3456747.6,200.0,180223,000.0,W*6C
$GPGGA,000314.045,0455.443,S,01008.426,W,1,12,1.0,0.0,M,0.0,M,,*68
$GPGSA,A,3,01,02,03,04,05,06,07,08,09,10,11,12,1.0,1.0,1.0*30
$GPRMC,000314.045,A,0455.443,S,01008.426,W,3451731.5,109.0,180223,000.0,W*7D
$GPGGA,000315.045,1009.941,S,00504.945,E,1,12,1.0,0.0,M,0.0,M,,*78
$GPGSA,A,3,01,02,03,04,05,06,07,08,09,10,11,12,1.0,1.0,1.0*30
$GPRMC,000315.045,A,1009.941,S,00504.945,E,3500237.1,018.0,180223,000.0,W*6E
$GPGGA,000316.045,0514.485,N,01005.309,E,1,12,1.0,0.0,M,0.0,M,,*6C
$GPGSA,A,3,01,02,03,04,05,06,07,08,09,10,11,12,1.0,1.0,1.0*30
$GPRMC,000316.045,A,0514.485,N,01005.309,E,3493554.3,287.0,180223,000.0,W*75
$GPGGA,000317.045,1000.425,N,00529.957,W,1,12,1.0,0.0,M,0.0,M,,*7F
$GPGSA,A,3,01,02,03,04,05,06,07,08,09,10,11,12,1.0,1.0,1.0*30
$GPRMC,000317.045,A,1000.425,N,00529.957,W,3543749.3,196.0,180223,000.0,W*67
$GPGGA,000318.045,0545.457,S,01001.184,W,1,12,1.0,0.0,M,0.0,M,,*65
$GPGSA,A,3,01,02,03,04,05,06,07,08,09,10,11,12,1.0,1.0,1.0*30
$GPRMC,000318.045,A,0545.457,S,01001.184,W,3533880.0,105.0,180223,000.0,W*79
$GPGGA,000319.045,1001.687,S,00555.083,E,1,12,1.0,0.0,M,0.0,M,,*7E
$GPGSA,A,3,01,02,03,04,05,06,07,08,09,10,11,12,1.0,1.0,1.0*30
$GPRMC,000319.045,A,1001.687,S,00555.083,E,3587197.9,014.0,180223,000.0,W*6A
$GPGGA,000320.045,0604.727,N,00956.037,E,1,12,1.0,0.0,M,0.0,M,,*60
$GPGSA,A,3,01,02,03,04,05,06,07,08,09,10,11,12,1.0,1.0,1.0*30
$GPRMC,000320.045,A,0604.727,N,00956.037,E,3575779.8,283.0,180223,000.0,W*72
$GPGGA,000321.045,0950.128,N,00620.282,W,1,12,1.0,0.0,M,0.0,M,,*76
$GPGSA,A,3,01,02,03,04,05,06,07,08,09,10,11,12,1.0,1.0,1.0*30
$GPRMC,000321.045,A,0950.128,N,00620.282,W,3630643.6,192.0,180223,000.0,W*63
$GPGGA,000322.045,0635.845,S,00949.857,W,1,12,1.0,0.0,M,0.0,M,,*64
$GPGSA,A,3,01,02,03,04,05,06,07,08,09,10,11,12,1.0,1.0,1.0*30
$GPRMC,000322.045,A,0635.845,S,00949.857,W,3616056.2,101.0,180223,000.0,W*79
$GPGGA,000323.045,0949.325,S,00645.513,E,1,12,1.0,0.0,M,0.0,M,,*70
$GPGSA,A,3,01,02,03,04,05,06,07,08,09,10,11,12,1.0,1.0,1.0*30
$GPRMC,000323.045,A,0949.325,S,00645.513,E,3674044.2,010.0,180223,000.0,W*6B
$GPGGA,000324.045,0655.179,N,00942.634,E,1,12,1.0,0.0,M,0.0,M,,*6D
$GPGSA,A,3,01,02,03,04,05,06,07,08,09,10,11,12,1.0,1.0,1.0*30
$GPRMC,000324.045,A,0655.179,N,00942.634,E,3658102.5,279.0,180223,000.0,W*71
$GPGGA,000325.045,0935.681,N,00710.734,W,1,12,1.0,0.0,M,0.0,M,,*7F
$GPGSA,A,3,01,02,03,04,05,06,07,08,09,10,11,12,1.0,1.0,1.0*30
$GPRMC,000325.045,A,0935.681,N,00710.734,W,3717425.7,188.0,180223,000.0,W*66
$GPGGA,000326.045,0726.276,S,00934.361,W,1,12,1.0,0.0,M,0.0,M,,*6D
$GPGSA,A,3,01,02,03,04,05,06,07,08,09,10,11,12,1.0,1.0,1.0*30
$GPRMC,000326.045,A,0726.276,S,00934.361,W,3698414.3,097.0,180223,000.0,W*7B
$GPGGA,000327.045,0932.776,S,00735.902,E,1,12,1.0,0.0,M,0.0,M,,*70
$GPGSA,A,3,01,02,03,04,05,06,07,08,09,10,11,12,1.0,1.0,1.0*30
$GPRMC,000327.045,A,0932.776,S,00735.902,E,3760771.8,006.0,180223,000.0,W*63
$GPGGA,000328.045,0745.505,N,00925.030,E,1,12,1.0,0.0,M,0.0,M,,*6D
$GPGSA,A,3,01,02,03,04,05,06,07,08,09,10,11,12,1.0,1.0,1.0*30
$GPRMC,000328.045,A,0745.505,N,00925.030,E,3740678.9,275.0,180223,000.0,W*73
$GPGGA,000329.045,0917.018,N,00800.974,W,1,12,1.0,0.0,M,0.0,M,,*71
$GPGSA,A,3,01,02,03,04,05,06,07,08,09,10,11,12,1.0,1.0,1.0*30
$GPRMC,000329.045,A,0917.018,N,00800.974,W,3804089.1,184.0,180223,000.0,W*6D
$GPGGA,000330.045,0816.410,S,00914.637,W,1,12,1.0,0.0,M,0.0,M,,*64
$GPGSA,A,3,01,02,03,04,05,06,07,08,09,10,11,12,1.0,1.0,1.0*30
$GPRMC,000330.045,A,0816.410,S,00914.637,W,3781116.0,093.0,180223,000.0,W*7B
$GPGGA,000331.045,0911.990,S,00825.907,E,1,12,1.0,0.0,M,0.0,M,,*7B
$GPGSA,A,3,01,02,03,04,05,06,07,08,09,10,11,12,1.0,1.0,1.0*30
$GPRMC,000331.045,A,0911.990,S,00825.907,E,3847372.6,002.0,180223,000.0,W*6F
$GPGGA,000332.045,0835.359,N,00903.180,E,1,12,1.0,0.0,M,0.0,M,,*6F
$GPGSA,A,3,01,02,03,04,05,06,07,08,09,10,11,12,1.0,1.0,1.0*30
$GPRMC,000332.045,A,0835.359,N,00903.180,E,3823668.7,271.0,180223,000.0,W*70
$GPGGA,000333.045,0854.103,N,00850.657,W,1,12,1.0,0.0,M,0.0,M,,*7C
$GPGSA,A,3,01,02,03,04,05,06,07,08,09,10,11,12,1.0,1.0,1.0*30
$GPRMC,000333.045,A,0854.103,N,00850.657,W,3890620.6,180.0,180223,000.0,W*6B
$GPGGA,000334.045,0905.897,S,00850.657,W,1,12,1.0,0.0,M,0.0,M,,*67
$GPGSA,A,3,01,02,03,04,05,06,07,08,09,10,11,12,1.0,1.0,1.0*30
$GPRMC,000334.045,A,0905.897,S,00850.657,W,3864321.9,089.0,180223,000.0,W*78
$GPGGA,000335.045,0846.944,S,00915.178,E,1,12,1.0,0.0,M,0.0,M,,*77
$GPGSA,A,3,01,02,03,04,05,06,07,08,09,10,11,12,1.0,1.0,1.0*30
$GPRMC,000335.045,A,0846.944,S,00915.178,E,3933829.5,358.0,180223,000.0,W*6B
$GPGGA,000336.045,0924.391,N,00837.068,E,1,12,1.0,0.0,M,0.0,M,,*6F
$GPGSA,A,3,01,02,03,04,05,06,07,08,09,10,11,12,1.0,1.0,1.0*30
$GPRMC,000336.045,A,0924.391,N,00837.068,E,3907225.8,267.0,180223,000.0,W*72
$GPGGA,000337.045,0826.926,N,00939.427,W,1,12,1.0,0.0,M,0.0,M,,*79
$GPGSA,A,3,01,02,03,04,05,06,07,08,09,10,11,12,1.0,1.0,1.0*30
$GPRMC,000337.045,A,0826.926,N,00939.427,W,3976994.4,176.0,180223,000.0,W*6C
$GPGGA,000338.045,0954.385,S,00822.416,W,1,12,1.0,0.0,M,0.0,M,,*65
$GPGSA,A,3,01,02,03,04,05,06,07,08,09,10,11,12,1.0,1.0,1.0*30
$GPRMC,000338.045,A,0954.385,S,00822.416,W,3948181.1,085.0,180223,000.0,W*79
$GPGGA,000339.045,0817.642,S,01003.360,E,1,12,1.0,0.0,M,0.0,M,,*72
$GPGSA,A,3,01,02,03,04,05,06,07,08,09,10,11,12,1.0,1.0,1.0*30
$GPRMC,000339.045,A,0817.642,S,01003.360,E,4020110.7,354.0,180223,000.0,W*6F
$GPGGA,000340.045,1012.245,N,00806.706,E,1,12,1.0,0.0,M,0.0,M,,*66
$GPGSA,A,3,01,02,03,04,05,06,07,08,09,10,11,12,1.0,1.0,1.0*30
$GPRMC,000340.045,A,1012.245,N,00806.706,E,3991488.1,263.0,180223,000.0,W*78
$GPGGA,000341.045,0755.507,N,01026.931,W,1,12,1.0,0.0,M,0.0,M,,*70
$GPGSA,A,3,01,02,03,04,05,06,07,08,09,10,11,12,1.0,1.0,1.0*30
$GPRMC,000341.045,A,0755.507,N,01026.931,W,4063166.9,172.0,180223,000.0,W*63
$GPGGA,000342.045,1041.515,S,00749.943,W,1,12,1.0,0.0,M,0.0,M,,*64
$GPGSA,A,3,01,02,03,04,05,06,07,08,09,10,11,12,1.0,1.0,1.0*30
$GPRMC,000342.045,A,1041.515,S,00749.943,W,4032821.7,081.0,180223,000.0,W*7A
$GPGGA,000343.045,0744.118,S,01050.095,E,1,12,1.0,0.0,M,0.0,M,,*71
$GPGSA,A,3,01,02,03,04,05,06,07,08,09,10,11,12,1.0,1.0,1.0*30
$GPRMC,000343.045,A,0744.118,S,01050.095,E,4106164.5,350.0,180223,000.0,W*6C
$GPGGA,000344.045,1058.562,N,00732.136,E,1,12,1.0,0.0,M,0.0,M,,*63
$GPGSA,A,3,01,02,03,04,05,06,07,08,09,10,11,12,1.0,1.0,1.0*30
$GPRMC,000344.045,A,1058.562,N,00732.136,E,4076568.3,259.0,180223,000.0,W*7E
$GPGGA,000345.045,0719.895,N,01112.809,W,1,12,1.0,0.0,M,0.0,M,,*76
$GPGSA,A,3,01,02,03,04,05,06,07,08,09,10,11,12,1.0,1.0,1.0*30
$GPRMC,000345.045,A,0719.895,N,01112.809,W,4149072.8,168.0,180223,000.0,W*62
$GPGGA,000346.045,1126.931,S,00713.294,W,1,12,1.0,0.0,M,0.0,M,,*64
$GPGSA,A,3,01,02,03,04,05,06,07,08,09,10,11,12,1.0,1.0,1.0*30
$GPRMC,000346.045,A,1126.931,S,00713.294,W,4118341.6,077.0,180223,000.0,W*76
$GPGGA,000347.045,0706.437,S,01135.026,E,1,12,1.0,0.0,M,0.0,M,,*71
$GPGSA,A,3,01,02,03,04,05,06,07,08,09,10,11,12,1.0,1.0,1.0*30
$GPRMC,000347.045,A,0706.437,S,01135.026,E,4191916.3,346.0,180223,000.0,W*6E
$GPGGA,000348.045,1142.987,N,00653.429,E,1,12,1.0,0.0,M,0.0,M,,*6F
$GPGSA,A,3,01,02,03,04,05,06,07,08,09,10,11,12,1.0,1.0,1.0*30
$GPRMC,000348.045,A,1142.987,N,00653.429,E,4162545.3,255.0,180223,000.0,W*75
$GPGGA,000349.045,0640.169,N,01156.704,W,1,12,1.0,0.0,M,0.0,M,,*7F
$GPGSA,A,3,01,02,03,04,05,06,07,08,09,10,11,12,1.0,1.0,1.0*30
$GPRMC,000349.045,A,0640.169,N,01156.704,W,4234622.5,164.0,180223,000.0,W*60
$GPGGA,000350.045,1210.275,S,00632.554,W,1,12,1.0,0.0,M,0.0,M,,*67
$GPGSA,A,3,01,02,03,04,05,06,07,08,09,10,11,12,1.0,1.0,1.0*30
$GPRMC,000350.045,A,1210.275,S,00632.554,W,4204800.6,073.0,180223,000.0,W*71
$GPGGA,000351.045,0624.692,S,01217.798,E,1,12,1.0,0.0,M,0.0,M,,*7B
$GPGSA,A,3,01,02,03,04,05,06,07,08,09,10,11,12,1.0,1.0,1.0*30
$GPRMC,000351.045,A,0624.692,S,01217.798,E,4277267.1,342.0,180223,000.0,W*64
$GPGGA,000352.045,1225.163,N,00610.686,E,1,12,1.0,0.0,M,0.0,M,,*64
$GPGSA,A,3,01,02,03,04,05,06,07,08,09,10,11,12,1.0,1.0,1.0*30
$GPRMC,000352.045,A,1225.163,N,00610.686,E,4249457.8,251.0,180223,000.0,W*79
$GPGGA,000353.045,0556.435,N,01238.264,W,1,12,1.0,0.0,M,0.0,M,,*74
$GPGSA,A,3,01,02,03,04,05,06,07,08,09,10,11,12,1.0,1.0,1.0*30
$GPRMC,000353.045,A,0556.435,N,01238.264,W,4249457.8,251.0,180223,000.0,W*69
